
[
  {
    "id": "1367028f-a358-4917-9c55-7ffb6fce1c4e",
    "name": "Funkwerks",
    "brewery_type": "micro",
    "address_1": "1900 E Lincoln Ave Unit B",
    "address_2": null,
    "address_3": null,
    "city": "Fort Collins",
    "state_province": "Colorado",
    "postal_code": "80524-2789",
    "country": "United States",
    "longitude": null,
    "latitude": null,
    "phone": "9704823865",
    "website_url": "http://www.funkwerks.com",
    "state": "Colorado",
    "street": "1900 E Lincoln Ave Unit B"
  },
  {
    "id": "44b5fa92-c766-458c-8f6d-bfa1b69ec2ce",
    "name": "Funk Brewing Company",
    "brewery_type": "micro",
    "address_1": "19 S 6th St",
    "address_2": null,
    "address_3": null,
    "city": "Emmaus",
    "state_province": "Pennsylvania",
    "postal_code": "18049-3741",
    "country": "United States",
    "longitude": -75.49501857,
    "latitude": 40.532105,
    "phone": "6104218270",
    "website_url": "http://www.funkbrewing.com",
    "state": "Pennsylvania",
    "street": "19 S 6th St"
  },
  {
    "id": "501ec4a5-1a6c-4acb-8f19-5a5f62155dc5",
    "name": "Function Brewing Co",
    "brewery_type": "brewpub",
    "address_1": "108 E 6th St",
    "address_2": null,
    "address_3": null,
    "city": "Bloomington",
    "state_province": "Indiana",
    "postal_code": "47408-3311",
    "country": "United States",
    "longitude": -86.53337072,
    "latitude": 39.16746781,
    "phone": "8126761000",
    "website_url": "http://www.functionbrewing.com",
    "state": "Indiana",
    "street": "108 E 6th St"
  },
  {
    "id": "5c2cce18-999e-45f9-92f7-5106164a0b6f",
    "name": "Funguys Brewery",
    "brewery_type": "micro",
    "address_1": "2408 Paula St",
    "address_2": null,
    "address_3": null,
    "city": "Raleigh",
    "state_province": "North Carolina",
    "postal_code": "27608-1706",
    "country": "United States",
    "longitude": -78.62513369,
    "latitude": 35.81309826,
    "phone": null,
    "website_url": "http://www.funguysbrewing.com",
    "state": "North Carolina",
    "street": "2408 Paula St"
  },
  {
    "id": "62707d11-47fe-4377-94c5-c21e64e76170",
    "name": "funs brewing BEERHOUSE OSAKA",
    "brewery_type": "brewpub",
    "address_1": "1-15-10 Kita-Horie H1 Building B1",
    "address_2": null,
    "address_3": null,
    "city": "Osaka",
    "state_province": "Osaka",
    "postal_code": "550-0014",
    "country": "Japan",
    "longitude": 135.4947186,
    "latitude": 34.67351909,
    "phone": "81665857700",
    "website_url": "https://funsbrewing.com/pages/beerhouse-osaka",
    "state": "Osaka",
    "street": "1-15-10 Kita-Horie H1 Building B1"
  },
  {
    "id": "b2a171c8-a008-43cc-b4c1-ca52c4cfe67a",
    "name": "Funky Bow Brewery & Beer Company",
    "brewery_type": "micro",
    "address_1": "21 Ledgewood Ln",
    "address_2": null,
    "address_3": null,
    "city": "Lyman",
    "state_province": "Maine",
    "postal_code": "04002-7376",
    "country": "United States",
    "longitude": -70.60146195,
    "latitude": 43.48539497,
    "phone": "2074096814",
    "website_url": "http://www.funkybowbeercompany.com",
    "state": "Maine",
    "street": "21 Ledgewood Ln"
  },
  {
    "id": "db4e37ae-8228-440a-86a5-d02f08b1ea29",
    "name": "Funky Buddha Brewery",
    "brewery_type": "large",
    "address_1": "1201 NE 38th St Ste A1 Bay A1",
    "address_2": null,
    "address_3": null,
    "city": "Oakland Park",
    "state_province": "Florida",
    "postal_code": "33334-4504",
    "country": "United States",
    "longitude": null,
    "latitude": null,
    "phone": "9544400046",
    "website_url": "http://www.thefunkybuddha.com",
    "state": "Florida",
    "street": "1201 NE 38th St Ste A1 Bay A1"
  },
  {
    "id": "eb8b179b-3811-4755-b2c4-7516b49de2dc",
    "name": "Funky Buddha Lounge & Brewery",
    "brewery_type": "large",
    "address_1": "2621 N Federal Hwy",
    "address_2": null,
    "address_3": null,
    "city": "Boca Raton",
    "state_province": "Florida",
    "postal_code": "33431-7785",
    "country": "United States",
    "longitude": -80.0805397,
    "latitude": 26.3640441,
    "phone": "5613684643",
    "website_url": "http://www.thefunkybuddha.com",
    "state": "Florida",
    "street": "2621 N Federal Hwy"
  },
  {
    "id": "f0b97d36-2842-4fcc-9860-4186de1d481c",
    "name": "Funk Factory Geuzeria",
    "brewery_type": "closed",
    "address_1": "1602 Gilson St",
    "address_2": null,
    "address_3": null,
    "city": "Madison",
    "state_province": "Wisconsin",
    "postal_code": "53715-2128",
    "country": "United States",
    "longitude": -89.39197973,
    "latitude": 43.05010177,
    "phone": null,
    "website_url": "http://www.funkfactorygeuzeria.com",
    "state": "Wisconsin",
    "street": "1602 Gilson St"
  },
  {
    "id": "f6234e79-191b-489f-88e0-73c71e6517a5",
    "name": "Funhouse Brews",
    "brewery_type": "micro",
    "address_1": "7717 N Emerald Ave Unit A",
    "address_2": null,
    "address_3": null,
    "city": "Portland",
    "state_province": "Oregon",
    "postal_code": "97217-6111",
    "country": "United States",
    "longitude": -122.70021,
    "latitude": 45.57944,
    "phone": "3147532669",
    "website_url": "http://www.funhousebrews.com",
    "state": "Oregon",
    "street": "7717 N Emerald Ave Unit A"
  },
  {
    "id": "7d87f747-3b19-4648-9f34-6c0f2ff07b34",
    "name": "Mandatory Fun Brewing",
    "brewery_type": "planning",
    "address_1": null,
    "address_2": null,
    "address_3": null,
    "city": "Marietta",
    "state_province": "Georgia",
    "postal_code": "30064",
    "country": "United States",
    "longitude": null,
    "latitude": null,
    "phone": "9517955337",
    "website_url": "http://www.vikingalchemist.com",
    "state": "Georgia",
    "street": null
  },
  {
    "id": "f69603de-05b8-45b0-8212-38a36c45b432",
    "name": "Super Fun Time Brewing Company",
    "brewery_type": "planning",
    "address_1": null,
    "address_2": null,
    "address_3": null,
    "city": "Bangor",
    "state_province": "Pennsylvania",
    "postal_code": "18013-9244",
    "country": "United States",
    "longitude": null,
    "latitude": null,
    "phone": "6105974402",
    "website_url": null,
    "state": "Pennsylvania",
    "street": null
  },
  {
    "id": "9b2e8e78-6823-416c-8c7d-6a4dfd12ac0a",
    "name": "La Funke Brewing",
    "brewery_type": "planning",
    "address_1": null,
    "address_2": null,
    "address_3": null,
    "city": "Bulverde",
    "state_province": "Texas",
    "postal_code": "78163-4156",
    "country": "United States",
    "longitude": null,
    "latitude": null,
    "phone": "2104602083",
    "website_url": "http://www.lafunke.com",
    "state": "Texas",
    "street": null
  },
  {
    "id": "2056bc4b-2844-4128-a406-fca7a1dca89b",
    "name": "펜더멘탈 브루어리(Fundamental Brewing Co.)",
    "brewery_type": "brewpub",
    "address_1": "61, Maeyeong-ro 269beon-gil",
    "address_2": "Yeongtong-gu",
    "address_3": null,
    "city": "Suwon-si",
    "state_province": "Gyeonggido",
    "postal_code": "16523",
    "country": "South Korea",
    "longitude": 127.0677246,
    "latitude": 37.25978047,
    "phone": "050-71319-7808",
    "website_url": "https://www.instagram.com/fundamental_brewing_co/",
    "state": "Gyeonggido",
    "street": "61, Maeyeong-ro 269beon-gil"
  },
  {
    "id": "5937f6df-a6e0-48cf-9234-bfd66b3c4c8e",
    "name": "Wicked Weed Funkatorium",
    "brewery_type": "large",
    "address_1": "95 Old Shoals Rd",
    "address_2": null,
    "address_3": null,
    "city": "Arden",
    "state_province": "North Carolina",
    "postal_code": "28704-9401",
    "country": "United States",
    "longitude": -82.52495553,
    "latitude": 35.4674064,
    "phone": "8285759599",
    "website_url": "http://www.wickedweedbrewing.com",
    "state": "North Carolina",
    "street": "95 Old Shoals Rd"
  },
  {
    "id": "995b3da6-99ed-4cf4-9562-05286f4430f8",
    "name": "Wicked Weed Funk House",
    "brewery_type": "large",
    "address_1": "95 Old Shoals Rd",
    "address_2": null,
    "address_3": null,
    "city": "Arden",
    "state_province": "North Carolina",
    "postal_code": "28704-9401",
    "country": "United States",
    "longitude": -82.52495553,
    "latitude": 35.4674064,
    "phone": null,
    "website_url": "http://www.wickedweedbrewing.com",
    "state": "North Carolina",
    "street": "95 Old Shoals Rd"
  }
]
