[
  {
    "id": "6aa5ecd3-aaec-472c-ba67-c7f8d6b75b40",
    "name": "Black Laboratory Breing 999",
    "brewery_type": "micro",
    "address_1": "1602 E Houston St Suite 109",
    "address_2": null,
    "address_3": null,
    "city": "San Antonio",
    "state_province": "Texas",
    "postal_code": "78202",
    "country": "United States",
    "longitude": "-98.4753507",
    "latitude": "29.4246556",
    "phone": "210-370-3442",
    "website_url": "http://www.blacklaboratorybrewing.com/",
    "state": "Texas",
    "street": "1602 E Houston St Suite 109"
  },
  {
    "id": "32d22f8c-1a9a-45ea-a8b0-daf3a002fb5b",
    "name": "Bare Bones Brewery",
    "brewery_type": "brewpub",
    "address_1": "4362 County Rd S",
    "address_2": null,
    "address_3": null,
    "city": "Oshkosh",
    "state_province": "Wisconsin",
    "postal_code": "54904-9575",
    "country": "United States",
    "longitude": "-88.59075354",
    "latitude": "44.07856457",
    "phone": "9207448045",
    "website_url": "http://www.barebonesbrewery.us",
    "state": "Wisconsin",
    "street": "4362 County Rd S"
  },
  {
    "id": "df0ca5e9-9372-4516-a191-e6bfe4c466b0",
    "name": "Bare Arms Brewing",
    "brewery_type": "micro",
    "address_1": "2515 La Salle Ave",
    "address_2": null,
    "address_3": null,
    "city": "Waco",
    "state_province": "Texas",
    "postal_code": "76706-3929",
    "country": "United States",
    "longitude": "-97.13081959",
    "latitude": "31.52488462",
    "phone": "2547598480",
    "website_url": "http://www.barearmsbrewing.com",
    "state": "Texas",
    "street": "2515 La Salle Ave"
  },
  {
    "id": "eaccdf46-40c0-4a05-a4b8-680f0e38f913",
    "name": "Bare Hands Brewery",
    "brewery_type": "micro",
    "address_1": "12804 Sandy Ct",
    "address_2": null,
    "address_3": null,
    "city": "Granger",
    "state_province": "Indiana",
    "postal_code": "46530-4309",
    "country": "United States",
    "longitude": null,
    "latitude": null,
    "phone": "5742772258",
    "website_url": "http://www.barehandsbrewbrewery.com",
    "state": "Indiana",
    "street": "12804 Sandy Ct"
  },
  {
    "id": "8b865b0c-585f-4911-a8db-25a466c3915b",
    "name": "TAPS Fish House and Brewery - Brea",
    "brewery_type": "brewpub",
    "address_1": "101 E Imperial Hwy",
    "address_2": null,
    "address_3": null,
    "city": "Brea",
    "state_province": "California",
    "postal_code": "92821-4924",
    "country": "United States",
    "longitude": "-117.9018387",
    "latitude": "33.9171643",
    "phone": "7142570101",
    "website_url": "http://www.tapsbrea.com",
    "state": "California",
    "street": "101 E Imperial Hwy"
  }
]
